City ID,City,Country,Lat,Lng,Temperature,Humidity,Clouds,Wind Speed
933778,Francistown,BW,-21.17,27.5079,66.52,70,100,14.74
2075265,Busselton,AU,-33.65,115.3333,61.05,66,100,9.28
2618795,Klaksvík,FO,62.2266,-6.589,52.72,85,100,21.0
3366880,Hermanus,ZA,-34.4187,19.2345,56.89,75,0,7.56
371745,Kutum,SD,14.2,24.6667,73.09,24,59,7.09
4035715,Avarua,CK,-21.2078,-159.775,78.85,65,20,9.22
3839307,Rawson,AR,-43.3002,-65.1023,47.64,77,0,9.1
2641598,Newport,GB,51.5877,-2.9984,56.64,92,39,4.29
3883457,Lebu,CL,-37.6167,-73.65,47.62,87,0,8.88
3430863,Mar del Plata,AR,-38.0023,-57.5575,49.64,67,0,5.99
4034551,Faanui,PF,-16.4833,-151.75,79.05,72,6,7.2
3693345,Pucallpa,PE,-8.3791,-74.5539,80.64,83,40,2.3
5122534,Jamestown,US,42.097,-79.2353,65.37,87,20,1.99
4020109,Atuona,PF,-9.8,-139.0333,77.85,78,24,14.7
6185377,Yellowknife,CA,62.456,-114.3525,36.86,99,75,3.44
2063039,Port Keats,AU,-14.25,129.55,91.81,47,61,10.47
2163355,Hobart,AU,-42.8794,147.3294,65.62,50,40,5.01
5855927,Hilo,US,19.7297,-155.09,78.17,73,75,8.05
1566346,Thai Binh,VN,20.45,106.3333,86.0,68,100,15.73
6170031,Tuktoyaktuk,CA,69.4541,-133.0374,32.0,80,20,5.75
10722858,Forsytheganj,BY,52.6333,29.7333,35.31,64,0,5.68
4030556,Rikitea,PF,-23.1203,-134.9692,73.85,74,34,9.31
3893726,Constitución,CL,-35.3333,-72.4167,49.17,89,0,6.93
933995,Souillac,MU,-20.5167,57.5167,68.38,88,75,3.44
2122574,Ola,RU,59.5833,151.2833,33.19,47,10,3.91
3369157,Cape Town,ZA,-33.9258,18.4232,58.14,63,75,16.11
6201424,Mataura,NZ,-46.1927,168.8643,56.48,59,100,5.91
2027316,Ayan,RU,56.45,138.1667,44.85,37,8,10.09
2206894,Hokitika,NZ,-42.7167,170.9667,57.36,81,64,7.96
3391220,Presidente Dutra,BR,-5.29,-44.49,82.09,55,69,5.1
1651810,Airai,TL,-8.9266,125.4092,81.61,26,31,5.28
3874787,Punta Arenas,CL,-53.15,-70.9167,46.51,53,0,18.41
687557,Zatoka,UA,46.0725,30.4654,44.53,61,99,22.41
2630299,Hofn,IS,64.2539,-15.2082,49.3,96,100,21.9
1794971,Shitanjing,CN,39.2342,106.3439,52.65,69,100,8.34
3831208,Qaanaaq,GL,77.484,-69.3632,22.98,65,100,8.16
876177,Luau,AO,-10.7073,22.2247,67.93,52,100,0.89
2137773,Vao,NC,-22.6667,167.4833,69.62,64,77,13.18
5989403,Kapuskasing,CA,49.4169,-82.4331,55.4,94,1,2.3
2153778,Parkes,AU,-33.1333,148.1833,67.66,34,86,5.1
1507390,Dikson,RU,73.5069,80.5464,31.69,93,100,13.58
3461425,Ilhabela,BR,-23.7781,-45.3581,65.97,88,100,6.02
3466704,Castro,BR,-24.7911,-50.0119,54.7,98,100,7.43
1492607,Severnoye,RU,56.3491,78.3619,38.3,93,100,6.67
2064735,Nhulunbuy,AU,-12.2333,136.7667,88.41,55,20,13.8
964432,Port Alfred,ZA,-33.5906,26.891,67.05,71,100,11.79
3372964,Lagoa,PT,39.05,-27.9833,68.49,72,2,6.4
2381972,Adrar,MR,20.5022,-10.0711,87.51,9,89,9.6
2112802,Hasaki,JP,35.7333,140.8333,78.35,76,54,14.9
1071296,Antalaha,MG,-14.9003,50.2788,71.24,79,100,3.69
1701054,Marawi,PH,7.9986,124.2928,71.65,84,100,0.87
5866583,Saint Paul Harbor,US,57.79,-152.4072,49.51,76,1,9.22
5106841,Albany,US,42.6001,-73.9662,57.36,91,44,1.32
4997130,Ingham,US,42.6,-84.3833,66.27,98,90,6.91
3433899,Formosa,AR,-26.1775,-58.1781,71.58,68,0,12.66
3421765,Nanortalik,GL,60.1432,-45.2371,38.41,63,100,3.09
1640972,Katobu,ID,-4.9408,122.5276,85.77,60,97,3.87
2035601,Mergen,CN,49.1833,125.2167,50.2,52,3,4.21
3092472,Malbork,PL,54.0359,19.0266,43.84,61,35,6.26
3833367,Ushuaia,AR,-54.8,-68.3,47.86,37,40,8.05
2122293,Ozernovskiy,RU,51.5,156.5167,42.04,95,100,4.9
5848280,Kapaa,US,22.0752,-159.319,78.91,71,75,5.01
2126199,Cherskiy,RU,68.75,161.3,12.34,92,34,2.37
610864,Khani,GE,41.9563,42.9566,49.57,72,3,5.84
2156643,Mount Gambier,AU,-37.8333,140.7667,58.91,58,40,17.27
2986732,Ploemeur,FR,47.7333,-3.4333,59.45,97,90,5.75
6165406,Thompson,CA,55.7435,-97.8558,50.16,76,40,6.91
3418910,Upernavik,GL,72.7868,-56.1549,25.0,46,12,4.18
2155415,New Norfolk,AU,-42.7826,147.0587,63.25,56,89,5.99
779261,Kjøllefjord,NO,70.9457,27.3465,40.42,67,100,25.55
3451138,Rio Grande,BR,-32.035,-52.0986,47.95,71,42,7.58
1819729,Hong Kong,HK,22.2855,114.1577,77.83,95,100,1.01
2176639,Batemans Bay,AU,-35.7167,150.1833,66.54,50,55,11.97
508362,Podgornoye,RU,51.735,39.1496,30.42,93,0,2.24
6167817,Torbay,CA,47.6666,-52.7314,47.55,86,75,5.75
2336237,Jega,NG,12.2175,4.3792,80.42,68,92,7.27
104515,Makkah al Mukarramah,SA,21.4267,39.8261,84.63,34,1,2.04
2126123,Chokurdakh,RU,70.6333,147.9167,17.58,84,100,7.18
3374210,São Filipe,CV,14.8961,-24.4956,79.48,78,24,4.97
140380,Bojnourd,IR,37.4747,57.329,48.15,81,90,4.61
1015776,Bredasdorp,ZA,-34.5322,20.0403,56.52,94,0,1.14
1308522,Monywa,MM,22.1167,95.1333,84.99,72,74,1.83
3855065,General Roca,AR,-39.0333,-67.5833,59.4,32,0,8.79
2122090,Pevek,RU,69.7008,170.3133,24.31,81,89,5.57
1734313,Paka,MY,4.6374,103.4368,78.73,89,20,0.0
2074865,Carnarvon,AU,-24.8667,113.6333,68.07,56,0,25.32
3372707,Ribeira Grande,PT,38.5167,-28.7,69.66,71,12,7.02
1649150,Bengkulu,ID,-3.8004,102.2655,79.86,78,48,4.29
1490256,Talnakh,RU,69.4865,88.3972,33.06,100,100,4.63
4944903,Nantucket,US,41.2835,-70.0995,60.94,82,1,5.75
1175296,Kalat,PK,29.0225,66.5916,58.91,16,0,5.84
1267776,Kargil,IN,34.5667,76.1,43.92,30,0,2.82
1272502,Diu,IN,20.7141,70.9822,82.72,77,94,4.14
1622318,Waingapu,ID,-9.6567,120.2641,86.05,56,84,6.96
2121385,Severo-Kuril'sk,RU,50.6789,156.125,48.4,75,100,18.75
3652764,Puerto Ayora,EC,-0.7393,-90.3518,69.55,94,98,7.0
1053384,Toamasina,MG,-18.1667,49.3833,69.76,86,88,13.22
2999908,Les Ponts-de-Cé,FR,47.4231,-0.5248,50.09,95,60,6.06
2110227,Butaritari,KI,3.0707,172.7902,82.83,66,15,13.62
2464701,Tataouine,TN,32.9297,10.4518,68.88,67,3,6.67
986717,Kruisfontein,ZA,-34.0033,24.7314,64.89,56,100,11.45
3671437,Caucayá,CO,-0.1934,-74.7819,71.38,94,34,1.97
1006984,East London,ZA,-33.0153,27.9116,66.6,93,100,12.06
4021858,Guerrero Negro,MX,27.9769,-114.0611,70.66,75,97,18.66
2206939,Bluff,NZ,-46.6,168.3333,56.8,75,100,15.28
6148373,Sioux Lookout,CA,50.1001,-91.917,66.27,72,75,6.91
2028164,Deputatsky,RU,69.3,139.9,22.62,69,100,6.53
1571058,Phan Thiet,VN,10.9333,108.1,81.63,79,100,11.18
2094342,Kavieng,PG,-2.5744,150.7967,84.02,68,83,3.38
2214432,Nālūt,LY,30.3333,10.85,68.11,64,0,11.72
3893629,Coquimbo,CL,-29.9533,-71.3436,54.46,80,100,6.8
1737486,Bintulu,MY,3.1667,113.0333,83.91,79,20,3.0
935215,Saint-Philippe,RE,-21.3585,55.7679,65.86,79,21,8.63
5282297,Bethel,US,41.3712,-73.414,58.6,91,1,3.44
2022572,Khatanga,RU,71.9667,102.5,20.01,96,100,7.38
1633419,Padang,ID,-0.9492,100.3543,78.85,71,87,1.86
2136825,Isangel,VU,-19.55,169.2667,80.71,57,20,11.5
3354077,Opuwo,NA,-18.0607,13.84,66.27,25,0,3.4
1621313,Ambulu,ID,-8.345,113.6058,82.8,62,11,5.95
6355222,Yulara,AU,-25.2406,130.9889,80.44,34,0,12.66
3443061,Chui,UY,-33.6971,-53.4616,47.3,79,6,6.11
2141305,Fayaoué,NC,-20.65,166.5333,73.35,64,0,14.56
778707,Mehamn,NO,71.0357,27.8492,40.03,68,100,25.61
1620254,Ban Chang,TH,12.7254,101.0553,82.78,90,20,0.0
1635815,Maumere,ID,-8.6199,122.2111,85.37,63,63,3.02
3412888,Stykkisholmur,IS,65.0757,-22.7297,42.4,91,100,26.17
780687,Berlevåg,NO,70.8578,29.0864,40.41,69,94,29.97
3394023,Natal,BR,-5.795,-35.2094,80.82,83,40,10.36
2160910,Kyabram,AU,-36.3167,145.05,68.88,45,50,6.64
2514651,Los Llanos de Aridane,ES,28.6585,-17.9182,66.13,80,75,10.36
2063036,Port Lincoln,AU,-34.7333,135.8667,65.89,37,100,13.76
211647,Lodja,CD,-3.4833,23.4333,68.54,89,50,2.48
4032243,Vaini,TO,-21.2,-175.2,82.56,78,20,4.61
5880054,Barrow,US,71.2906,-156.7887,33.82,75,90,9.22
3408424,Ipixuna,BR,-1.7625,-48.8043,78.75,88,37,6.11
3899695,Ancud,CL,-41.8697,-73.8203,45.93,90,1,3.98
2454268,Koutiala,ML,12.3917,-5.4642,79.95,61,70,6.4
2562247,Marsaxlokk,MT,35.8419,14.5431,68.61,68,20,12.66
5962442,Goderich,CA,43.7501,-81.7165,63.14,94,100,3.44
3134016,Tretten,NO,61.3142,10.3007,46.15,99,100,4.63
3424607,Tasiilaq,GL,65.6145,-37.6368,35.76,53,19,8.9
2347468,Bauchi,NG,10.5,10.0,73.35,80,60,2.68
3137469,Sørland,NO,67.667,12.6934,43.5,69,100,23.64
710071,Desna,UA,50.9273,30.7605,37.02,56,8,7.83
4120388,Malvern,US,34.3623,-92.813,68.76,87,1,2.01
2122614,Okha,RU,53.5739,142.9478,46.33,53,99,9.57
964420,Port Elizabeth,ZA,-33.918,25.5701,68.29,52,0,33.38
4007676,Pueblo Nuevo,MX,23.3833,-105.3833,59.74,77,42,6.29
4362001,Mayo,US,38.8876,-76.5119,66.87,91,1,0.0
4946620,Palmer,US,42.1584,-72.3287,56.05,93,1,0.0
5847411,Kahului,US,20.8947,-156.47,81.07,69,40,21.85
546105,Nikolskoye,RU,59.7035,30.7861,47.25,67,100,7.05
535839,Leshukonskoye,RU,64.8989,45.7622,46.99,79,100,14.79
3394539,Montes Altos,BR,-5.8333,-47.0667,82.85,42,3,8.57
3932145,Pisco,PE,-13.7,-76.2167,60.85,88,0,20.71
5746545,Portland,US,45.5234,-122.6762,55.13,67,1,3.0
3663495,Manoel Urbano,BR,-8.8389,-69.2597,77.49,72,96,1.36
2070998,Geraldton,AU,-28.7667,114.6,64.81,82,90,12.66
2264557,Ponta do Sol,PT,32.6667,-17.1,69.1,77,90,2.77
3984997,San Quintín,MX,30.4833,-115.95,67.69,81,100,13.91
3874579,Purranque,CL,-40.9167,-73.1667,40.28,98,0,3.0
347796,Sohag,EG,26.557,31.6948,70.23,43,0,8.16
2065594,Mount Isa,AU,-20.7333,139.5,94.77,15,0,8.05
2512186,Puerto del Rosario,ES,28.5004,-13.8627,71.35,78,6,9.22
2514301,Mahon,ES,39.8885,4.2658,63.16,67,20,11.5
1651531,Ambon City,ID,-3.6954,128.1814,84.34,89,40,3.44
3175096,Laas,IT,46.6166,10.7002,46.42,84,84,4.56
1493004,Sargatskoye,RU,55.6101,73.4972,37.62,87,75,7.29
110690,Faya,SA,18.3851,42.4509,64.92,65,19,6.76
3557758,Guane,CU,22.2025,-84.0875,78.1,89,99,4.97
6138802,Saint-Michel-des-Saints,CA,46.6834,-73.9159,52.93,93,6,2.26
3393536,Olinda,BR,-8.0089,-34.8553,80.33,74,40,9.22
4815462,Moundsville,US,39.9203,-80.7431,69.22,93,100,2.89
1494523,Polovinnoye,RU,54.7914,65.9864,35.44,82,7,7.99
3420768,Qasigiannguit,GL,68.8193,-51.1922,23.25,79,12,4.59
140463,Birjand,IR,32.8663,59.2211,63.07,20,0,6.91
1862505,Hirara,JP,24.8,125.2833,84.47,74,20,14.97
3389353,Santarém,BR,-2.4431,-54.7083,82.53,89,0,4.61
6053446,Lewisporte,CA,49.2499,-55.0482,43.68,75,100,4.5
1498314,Motygino,RU,58.1831,94.7592,33.89,98,100,6.51
2025159,Dalnerechensk,RU,45.9339,133.7225,58.21,44,53,10.63
525426,Sobolevo,RU,54.4299,31.8996,33.93,72,0,3.09
2139521,Noumea,NC,-22.2763,166.4572,80.58,59,44,19.71
2112309,Katsuura,JP,35.1333,140.3,75.22,76,50,11.95
311704,İdil,TR,37.3411,41.8895,60.78,26,0,4.94
2119283,Zyryanka,RU,65.75,150.85,28.8,53,19,10.74
487928,Stary Oskol,RU,51.2967,37.8417,37.17,59,0,5.79
5554428,Ketchikan,US,55.3422,-131.6461,46.38,95,100,13.29
2032614,Baruun-Urt,MN,46.6806,113.2792,52.12,47,14,11.7
1816890,Baoying,CN,33.2292,119.3092,75.81,79,82,10.09
3491161,Bull Savanna,JM,17.8868,-77.5902,77.85,84,13,4.72
2629833,Husavik,IS,66.0449,-17.3389,40.91,96,100,10.31
3466165,Cidreira,BR,-30.1811,-50.2056,59.56,66,3,6.96
3423146,Ilulissat,GL,69.2167,-51.1,23.02,58,6,1.14
2686469,Örnsköldsvik,SE,63.2909,18.7153,34.75,100,59,4.61
496358,Severnyy,RU,50.677,36.5532,35.64,69,0,6.71
1895695,Kushima,JP,31.4583,131.2333,78.84,55,41,10.65
1264976,Leh,IN,34.1667,77.5833,46.81,26,0,2.95
2208248,Kaitangata,NZ,-46.2817,169.8464,57.79,65,87,9.15
1513714,Kosonsoy,UZ,41.2561,71.5508,46.96,57,100,5.77
4392354,Jasper,US,37.2001,-94.3502,64.89,79,20,7.2
1863997,Fukuechō,JP,32.6881,128.8419,80.96,74,20,6.91
6089245,Norman Wells,CA,65.282,-126.8329,28.44,93,75,0.0
934322,Mahébourg,MU,-20.4081,57.7,68.29,88,75,3.44
898947,Senanga,ZM,-16.1167,23.2667,68.36,35,8,4.7
1262062,Naliya,IN,23.2667,68.8333,81.5,75,17,7.4
2146219,Hervey Bay,AU,-25.2986,152.8535,83.03,65,0,12.15
962367,Richards Bay,ZA,-28.783,32.0377,66.97,81,100,18.95
3187694,Virovitica,HR,45.8319,17.3839,50.52,81,100,10.98
2024626,Dzhebariki-Khaya,RU,62.2167,135.8,34.02,73,94,9.48
2012530,Zhigansk,RU,66.7697,123.3711,23.68,80,64,13.76
2017155,Saskylakh,RU,71.9167,114.0833,1.94,96,80,5.28
2171507,Wollongong,AU,-34.4333,150.8833,71.38,59,57,11.68
1814093,Dali,CN,25.7,100.1833,66.67,80,9,1.41
296852,Erzin,TR,36.9559,36.2,50.72,29,0,5.21
53654,Mogadishu,SO,2.0371,45.3438,77.27,78,79,15.1
1513491,Yangi Marg`ilon,UZ,40.4272,71.7189,50.72,81,40,6.91
3405051,Borba,BR,-4.3878,-59.5939,79.52,73,93,0.94
1637001,Biak,ID,-0.9131,122.8766,83.64,64,49,4.61
548493,Kirgiz-Miyaki,RU,53.6324,54.7979,34.63,84,0,2.39
1735106,George Town,MY,5.4112,100.3354,81.32,88,20,1.99
1517637,Ushtobe,KZ,45.2514,77.9838,34.93,53,0,12.77
2409914,Bonthe,SL,7.5264,-12.505,78.13,84,47,5.91
1218612,Murgab,TM,37.4966,61.9714,48.07,49,40,6.91
2374583,Bubaque,GW,11.2833,-15.8333,83.82,76,100,3.94
1789271,Xinan,CN,26.72,119.8556,81.86,72,74,6.87
1262469,Munirābād,IN,15.3333,76.3333,75.38,86,94,7.72
5882953,Aklavik,CA,68.2191,-135.0107,32.83,88,100,5.53
2127060,Arman',RU,59.7,150.1667,33.71,47,14,3.47
3416888,Grindavik,IS,63.8424,-22.4338,48.67,93,90,21.85
2094027,Kieta,PG,-6.2167,155.6333,84.74,74,100,5.64
2109528,Buala,SB,-8.145,159.5921,86.0,69,22,8.77
2181625,Te Anau,NZ,-45.4167,167.7167,50.38,88,100,4.32
207596,Mweka,CD,-4.85,21.5667,70.93,72,83,0.94
1529484,Kumul,CN,42.8,93.45,38.01,60,100,15.37
2079582,Alyangula,AU,-13.8483,136.4192,89.47,58,80,11.5
3421982,Maniitsoq,GL,65.4167,-52.9,34.48,60,8,5.1
2074113,Collie,AU,-33.3667,116.15,55.98,58,100,6.17
3471451,Arraial do Cabo,BR,-22.9661,-42.0278,69.19,76,100,18.86
1062663,Mahajanga,MG,-15.7167,46.3167,69.82,88,20,6.91
3868633,Vallenar,CL,-28.5708,-70.7581,52.36,78,25,4.85
293842,Kiryat Gat,IL,31.61,34.7642,68.41,67,0,3.98
5879400,Anchorage,US,61.2181,-149.9003,47.89,75,90,1.01
172515,Abu Samrah,SY,35.3029,37.1841,63.57,27,0,3.58
2276492,Harper,LR,4.375,-7.7169,76.84,88,100,5.48
1847947,Shingū,JP,33.7333,135.9833,79.79,64,82,4.21
3939470,Huancavelica,PE,-12.7667,-74.9833,39.94,93,99,4.36
2656046,Bedford,GB,52.1346,-0.4663,58.32,97,79,4.72
935214,Saint-Pierre,RE,-21.3393,55.4781,66.34,70,37,9.22
108410,Riyadh,SA,24.6877,46.7219,75.34,38,0,3.74
3386213,Touros,BR,-5.1989,-35.4608,79.7,84,91,11.61
2654970,Brae,GB,60.3964,-1.353,53.51,94,46,13.29
4231997,Avera,US,33.194,-82.5271,70.39,93,5,4.72
5731371,Hillsboro,US,45.5229,-122.9898,54.3,67,1,8.05
3919998,Cobija,BO,-11.0267,-68.7692,79.75,60,96,2.93
1490364,Tabory,RU,58.5198,64.5495,34.65,90,0,7.11
3146487,Raudeberg,NO,61.9875,5.1352,55.87,80,100,7.0
2138522,Poya,NC,-21.35,165.15,79.43,43,1,9.15
2063042,Port Hedland,AU,-20.3167,118.5667,78.85,69,0,6.91
6255012,Flinders,AU,-34.5833,150.8552,71.11,59,65,5.01
5906757,Bow Island,CA,49.8668,-111.3684,48.67,46,0,6.91
2476396,Timizart,DZ,36.8,4.2667,58.89,77,4,5.84
1605277,Trat,TH,12.5,102.5,79.92,91,100,0.47
1788534,Xinyang,CN,32.1228,114.0656,57.7,88,100,8.39
3395458,Maragogi,BR,-9.0122,-35.2225,75.87,82,96,7.63
3355672,Lüderitz,NA,-26.6481,15.1594,55.71,78,0,7.45
2015352,Terney,RU,45.0503,136.6092,61.25,42,3,6.49
2145554,Ulladulla,AU,-35.35,150.4667,65.71,52,25,14.23
3929389,San Miguel de Cauri,PE,-10.1,-76.5833,46.67,88,98,2.93
1218420,Seydi,TM,39.4816,62.9137,52.21,18,100,9.31
3838859,Río Gallegos,AR,-51.6226,-69.2181,42.85,52,0,2.3
5354943,Half Moon Bay,US,37.4636,-122.4286,56.79,75,90,5.75
3373652,Oistins,BB,13.0667,-59.5333,82.49,83,20,24.16
3356264,Keetmanshoop,NA,-26.5833,18.1333,55.76,42,13,5.84
121240,Pāveh,IR,35.0434,46.3565,49.51,58,0,7.23
1244926,Hambantota,LK,6.1241,81.1185,77.34,100,20,4.61
3437443,Pozo Colorado,PY,-23.4923,-58.7972,72.88,78,100,2.68
3576994,Cockburn Town,TC,21.4612,-71.1419,82.8,76,4,17.65
5116602,Endicott,US,42.0984,-76.0494,62.71,85,1,0.0
2537763,Salé,MA,34.0389,-6.8166,65.21,100,90,5.75
1627185,Sijunjung,ID,-0.6876,100.9537,78.19,73,100,0.2
5983720,Iqaluit,CA,63.7506,-68.5145,34.7,93,90,10.0
1045114,Inhambane,MZ,-23.865,35.3833,67.6,67,83,7.2
1712961,Gigmoto,PH,13.7796,124.39,81.19,84,100,7.23
1626542,Sorong,ID,-0.8833,131.25,83.91,75,59,6.67
119115,Qūchān,IR,37.106,58.5095,48.13,90,98,11.43
4406282,Rolla,US,37.9514,-91.7713,61.2,91,1,0.0
2132606,Samarai,PG,-10.6167,150.6667,82.63,77,97,11.68
1650064,Barabai,ID,-2.5833,115.3833,88.74,59,41,0.74
7626405,Skibotn,NO,69.3913,20.2679,35.47,86,93,2.73
2108502,Honiara,SB,-9.4333,159.95,86.81,71,50,9.82
3836669,San Rafael,AR,-34.6177,-68.3301,58.33,31,4,4.76
1855540,Naze,JP,28.3667,129.4833,81.52,66,84,16.64
2527087,Tiznit Province,MA,29.5833,-9.5,65.55,51,3,0.89
3671497,Puerto Colombia,CO,10.9878,-74.9547,84.29,81,43,17.92
6138719,Saint-Marc-des-Carrieres,CA,46.6834,-72.0491,52.79,93,19,1.14
3839982,Punta Alta,AR,-38.8759,-62.0736,50.29,58,0,9.75
2303611,Esim,GH,4.8699,-2.2405,76.1,91,64,1.66
2189343,Kaeo,NZ,-35.1,173.7833,65.73,54,2,9.42
5969025,Haines Junction,CA,60.7522,-137.5108,40.95,75,100,2.3
5847486,Kailua,US,21.4022,-157.7394,81.16,62,75,11.5
2127202,Anadyr,RU,64.75,177.4833,32.0,100,90,13.42
4031574,Provideniya,RU,64.3833,-173.3,37.51,81,75,15.66
2278158,Buchanan,LR,5.8808,-10.0467,77.2,90,87,7.67
2123979,Kuril'sk,RU,45.2333,147.8833,54.23,66,99,5.99
5916706,Carberry,CA,49.8689,-99.3602,59.23,30,100,6.98
4513583,Hamilton,US,39.1834,-84.5333,69.26,93,90,3.44
1803367,Linqing,CN,36.8456,115.7117,58.84,75,97,7.14
3013633,Arrondissement du Havre,FR,49.5833,0.3333,56.64,88,90,4.61
1529660,Aksu,CN,41.1231,80.2644,50.65,31,0,4.61
667507,Secăria,RO,45.2833,25.6833,39.65,71,100,4.99
513883,Otradnyy,RU,53.376,51.3452,37.81,69,0,2.95
3356832,Henties Bay,NA,-22.116,14.2845,52.86,81,0,6.98
3448903,São João da Barra,BR,-21.6403,-41.0511,71.06,88,100,18.48
1642858,Jambi City,ID,-1.6,103.6167,79.2,86,100,3.87
1521153,Mamlyutka,KZ,54.9375,68.5394,35.78,78,14,8.46
124862,Marand,IR,38.4329,45.7749,46.74,77,1,3.09
157429,Kilindoni,TZ,-7.9139,39.6668,78.49,75,51,15.82
1863495,Gushikawa,JP,26.3544,127.8686,83.7,70,75,18.41
5557293,Sitka,US,57.0531,-135.33,48.09,81,90,6.91
4255151,Bud,US,39.447,-86.1758,64.54,97,28,3.49
2738381,Lata,PT,40.1629,-8.3327,58.19,57,13,3.11
103630,Najrān,SA,17.4924,44.1277,75.85,60,92,3.85
5924351,Clyde River,CA,70.4692,-68.5914,30.67,86,100,3.27
3571913,Marsh Harbour,BS,26.5412,-77.0636,82.62,70,77,11.18
2396853,Omboué,GA,-1.5746,9.2618,76.28,86,100,5.95
286621,Salalah,OM,17.0151,54.0924,78.89,94,40,2.3
1274547,Chātakonda,IN,17.55,80.65,78.55,90,37,1.79
1528796,At-Bashi,KG,41.1702,75.8106,38.71,81,79,1.36
4931378,Bristol,US,41.8334,-71.1662,58.35,87,0,1.01
1715335,Davila,PH,18.4726,120.5763,84.18,74,100,3.42
1268008,Kanniyākumāri,IN,8.0833,77.5667,81.03,82,97,14.36
2090021,Namatanai,PG,-3.6667,152.4333,84.09,73,97,0.89
5851349,Nānākuli,US,21.3906,-158.1547,82.89,53,40,8.05
1861280,Itoman,JP,26.1247,127.6694,86.02,70,75,16.11
3579925,St. George's,GD,12.0564,-61.7485,80.28,83,40,6.91
2168305,Dubbo,AU,-32.25,148.6167,71.73,35,35,11.5
4032369,Pangai,TO,-19.8,-174.35,80.71,65,20,5.75
2015306,Tiksi,RU,71.6872,128.8694,26.35,85,100,18.77
3398178,Inhuma,BR,-6.6683,-41.7078,83.3,33,98,1.99
100926,Umluj,SA,25.0213,37.2685,82.62,47,1,11.27
2173911,Broken Hill,AU,-31.95,141.4333,69.51,18,0,5.75
6137462,Saint-Augustin,CA,51.226,-58.6502,41.31,62,17,10.49
1500609,Lesogorsk,RU,56.0458,99.5136,35.28,93,100,10.36
620391,Vawkavysk,BY,53.1561,24.4513,36.05,62,0,7.25
1521315,Līsakovsk,KZ,52.5369,62.4936,37.18,81,10,5.97
3904906,Santa Cruz de la Sierra,BO,-17.8,-63.1667,72.86,64,18,2.3
5197085,Lancaster,US,40.2504,-76.2499,62.44,90,1,0.0
3628473,San Cristobal,VE,7.7669,-72.225,71.78,97,100,2.28
4031637,Lavrentiya,RU,65.5833,-171.0,35.13,99,100,7.27
3985710,Cabo San Lucas,MX,22.8909,-109.9124,87.22,51,1,4.61
2022129,Kichera,RU,55.9375,110.0997,36.77,76,99,4.61
2025256,Chumikan,RU,54.7183,135.315,42.57,56,19,22.53
2439376,Tahoua,NE,14.8888,5.2692,84.74,25,99,5.28
2455290,Kidal,ML,18.4411,1.4078,82.92,15,2,11.05
1486321,Yar-Sale,RU,66.8333,70.8333,43.07,92,100,15.37
2036113,Liaoyang,CN,41.2719,123.1731,58.33,61,0,4.5
2472431,Ben Gardane,TN,33.1378,11.2197,71.83,59,2,10.65
3868626,Valparaíso,CL,-33.0393,-71.6273,57.47,74,75,5.75
2084442,Vanimo,PG,-2.6741,141.3028,87.53,61,12,6.96
1648186,Bontang,ID,0.1333,117.5,85.05,67,53,9.26
3440777,Rocha,UY,-34.4833,-54.3333,40.87,87,3,2.44
5392593,San Ramon,US,37.7799,-121.978,55.72,74,1,3.0
141736,Bam,IR,29.106,58.357,76.98,14,0,5.1
3939761,Hualmay,PE,-11.0964,-77.6139,62.91,89,99,12.77
488618,Starosubkhangulovo,RU,53.1031,57.4423,31.35,94,7,2.48
60019,Eyl,SO,7.9803,49.8164,77.45,79,98,13.69
847634,Rypefjord,NO,70.6333,23.6667,37.87,87,75,12.66
4726521,San Patricio,US,28.017,-97.5169,77.2,55,0,7.52
3194099,Opatija,HR,45.3392,14.3083,56.01,73,100,19.91
1510689,Baykit,RU,61.67,96.37,36.14,96,100,4.0
2180815,Tuatapere,NZ,-46.1333,167.6833,56.82,76,97,2.13
245669,Adré,TD,13.4667,22.2,78.35,25,93,8.25
3687972,Calamar,CO,10.2511,-74.9146,82.35,91,90,7.45
686090,Asău,RO,46.4333,26.4,33.57,70,100,3.94
535113,Lipin Bor,RU,60.2622,37.9763,41.7,73,100,13.4
3658666,Cuenca,EC,-2.8833,-78.9833,60.93,67,75,4.61
696292,Prymors'k,UA,46.7348,36.3443,49.32,62,100,21.97
2031964,Darhan,MN,49.4867,105.9228,42.82,77,100,4.92
3521108,Progreso,MX,21.2833,-89.6667,82.11,84,99,11.18
3359736,Vredendal,ZA,-31.6683,18.5012,55.87,84,77,4.07
3386177,Trairi,BR,-3.2778,-39.2689,79.0,83,88,9.86
556279,Inzer,RU,54.2167,57.5556,33.21,93,6,1.74
2729907,Longyearbyen,SJ,78.2186,15.6401,19.24,79,0,10.36
3397763,Jacareacanga,BR,-6.2222,-57.7528,73.54,98,100,2.93
1848976,Wajima,JP,37.4,136.9,77.68,73,75,6.91
160961,Bukoba,TZ,-1.3317,31.8122,65.77,73,10,4.12
5044290,Saint Anthony,US,45.0205,-93.218,65.25,85,90,4.61
3385670,Urucará,BR,-2.5364,-57.76,77.63,74,100,0.98
2636790,Stornoway,GB,58.2093,-6.3865,55.56,88,40,13.8
2377450,Nouakchott,MR,18.0858,-15.9785,79.66,76,37,7.29
1033356,Nampula,MZ,-15.1165,39.2666,66.15,88,20,9.22
5954718,Flin Flon,CA,54.7682,-101.865,44.33,46,5,5.7
3899539,Antofagasta,CL,-23.65,-70.4,58.84,80,65,5.08
3924948,Ouro Preto do Oeste,BR,-10.7481,-62.2158,75.25,88,99,1.48
6067747,Matagami,CA,49.7502,-77.6328,51.91,93,1,5.75
2025456,Chernyshevskiy,RU,63.0128,112.4714,30.6,79,100,2.75
1526038,Atbasar,KZ,51.8,68.3333,34.59,82,13,6.15
5850554,Makakilo City,US,21.3469,-158.0858,81.72,51,40,8.05
5478673,Meadow Lake,US,34.8014,-106.5436,68.16,29,99,7.54
1224061,Wattegama,LK,6.7989,81.4808,76.12,75,100,8.01
1082243,Ambilobe,MG,-13.2,49.05,71.91,85,97,4.38
5380437,Pacific Grove,US,36.6177,-121.9166,57.51,76,75,4.0
3412093,Vestmannaeyjar,IS,63.4427,-20.2734,49.87,87,100,30.53
6180550,Whitehorse,CA,60.7161,-135.0538,37.72,86,90,4.0
2386756,Gamboula,CF,4.1178,15.1393,68.27,98,100,0.89
3108950,Silleda,ES,42.696,-8.2465,51.26,99,100,2.21
5110365,Broome,US,42.2506,-75.833,62.02,72,1,0.0
1185239,Sarankhola,BD,22.3082,89.7897,83.03,81,61,0.89
4036284,Alofi,NU,-19.0595,-169.9187,82.29,74,75,13.8
3520994,Puerto Escondido,MX,15.85,-97.0667,81.46,80,100,2.37
3445026,Vila Velha,BR,-20.3297,-40.2925,75.15,78,75,13.8
1024701,Macia,MZ,-25.0269,33.0989,65.43,74,100,5.21
1282256,Hithadhoo,MV,-0.6,73.0833,82.99,67,99,9.37
3430443,Necochea,AR,-38.5473,-58.7368,41.04,80,0,9.48
1307741,Myitkyina,MM,25.3833,97.4,80.13,81,7,2.01
3670218,San Andrés,CO,12.5847,-81.7006,84.22,84,75,13.8
769274,Kętrzyn,PL,54.0768,21.3753,38.12,63,2,6.78
2126710,Beringovskiy,RU,63.05,179.3167,33.01,94,100,10.85
4013679,Coahuayana Viejo,MX,18.7333,-103.6833,87.28,84,50,0.81
2412408,Nioro,GM,13.35,-15.75,77.76,88,51,9.62
5546220,Saint George,US,37.1041,-113.5841,75.2,38,1,1.99
3883167,Linares,CL,-35.85,-71.6,50.14,66,0,0.85
2641434,Northam,GB,51.0333,-4.2167,59.36,92,100,9.17
2038067,Chifeng,CN,42.2683,118.9636,56.3,40,2,2.44
2122605,Okhotsk,RU,59.3833,143.3,33.22,64,31,8.86
5870133,Nome,US,64.5011,-165.4064,39.27,87,75,8.05
2440371,Ouallam,NE,14.3188,2.0866,87.15,30,7,2.71
600438,Biržai,LT,56.2,24.75,36.55,71,8,6.15
1272140,Dwārka,IN,22.2394,68.9678,82.4,77,4,7.58
3121424,Gijón,ES,43.5357,-5.6615,55.85,88,8,4.9
5404476,Ukiah,US,39.1502,-123.2078,60.01,51,1,4.61
954161,Somerset East,ZA,-32.7217,25.588,61.99,68,99,4.5
738742,Tokat,TR,40.4167,36.5833,38.23,87,12,1.19
3894426,Coyhaique,CL,-45.5752,-72.0662,48.15,66,0,2.3
3466980,Caravelas,BR,-17.7125,-39.2481,74.82,83,100,7.38
2449893,Tessalit,ML,20.1986,1.0114,82.51,16,0,11.41
5067114,Douglas,US,41.3,-96.167,66.9,78,1,1.01
87205,Darnah,LY,32.767,22.6367,71.62,58,0,10.58
1277330,Banganapalle,IN,15.3167,78.2333,80.94,77,97,2.26
580420,Atkarsk,RU,51.8718,45.0078,36.84,66,23,2.59
4152890,DeLand,US,29.0283,-81.3031,79.34,89,1,4.61
961226,Ritchie,ZA,-29.038,24.6028,56.41,77,0,11.74
2649715,Falmouth,GB,50.1544,-5.0711,59.68,94,75,4.61
3200768,Gacko,BA,43.1672,18.5353,51.93,97,100,4.43
4228452,Villa Rica,US,33.7321,-84.9191,68.59,97,34,3.94
1337605,Mahibadhoo,MV,3.7833,72.9667,82.98,75,56,13.6
160141,Dunda,TZ,-8.1167,34.25,64.85,73,5,2.8
6058415,Logan Lake,CA,50.4998,-120.8025,42.82,68,60,5.46
1254046,Tura,IN,25.5198,90.2201,79.56,78,36,0.81
582447,Almaznyy,RU,48.0448,40.045,39.34,57,28,12.84
738662,Tosya,TR,41.0155,34.0401,46.33,81,5,0.27
5915359,Cap-Chat,CA,49.1001,-66.6821,55.4,76,22,8.05
359792,Aswān,EG,24.0934,32.907,74.5,28,0,11.5
2077895,Alice Springs,AU,-23.7,133.8833,81.95,34,0,9.22
5859699,College,US,64.8569,-147.8028,36.82,94,90,4.61
3435261,Concordia,AR,-31.393,-58.0209,55.78,69,11,4.0
3680090,Juradó,CO,7.1053,-77.7641,77.68,92,100,4.05
5975004,High Level,CA,58.5169,-117.136,41.11,60,20,4.61
2136150,Luganville,VU,-15.5333,167.1667,81.27,78,95,12.64
3702577,Portobelo,PA,9.55,-79.65,77.97,86,100,5.77
3041732,Mariehamn,AX,60.0973,19.9348,48.06,100,87,3.44
5742974,North Bend,US,43.4065,-124.2243,53.58,85,1,18.41
2123814,Leningradskiy,RU,69.3833,178.4167,26.44,96,100,1.01
3887127,Iquique,CL,-20.2208,-70.1431,61.52,75,43,2.68
2159220,Mackay,AU,-21.15,149.2,81.03,61,1,12.66
2186280,Nelson,NZ,-41.2833,173.2833,66.29,76,19,4.0
5536630,Cedar City,US,37.6775,-113.0619,60.94,47,1,10.36
4898433,Kewanee,US,41.2456,-89.9248,63.48,83,34,1.7
2108857,Gizo Government Station,SB,-8.103,156.8419,84.43,76,69,10.78
3421319,Nuuk,GL,64.1835,-51.7216,32.61,69,0,13.8
1644605,Galesong,ID,-5.3166,119.3661,84.22,58,83,9.19
3887344,Illapel,CL,-31.6308,-71.1653,51.66,87,92,5.28
1809062,Haimen,CN,23.1935,116.6142,78.69,89,100,21.81
2178753,Kirakira,SB,-10.4544,161.9205,85.78,71,99,13.98
3526756,Isla Mujeres,MX,21.2311,-86.731,82.17,80,99,8.63
3577154,Oranjestad,AW,12.524,-70.027,84.15,74,20,13.8
57000,Hobyo,SO,5.3505,48.5268,76.8,83,70,17.78
2098329,Daru,PG,-9.0763,143.2092,81.61,85,92,12.88
2686162,Oskarshamn,SE,57.2645,16.4484,40.77,89,56,3.11
2458334,Douentza,ML,14.9951,-2.9517,89.37,23,28,3.44
2328952,Nguru,NG,12.8791,10.4526,81.82,23,37,6.38
660561,Porvoo,FI,60.3923,25.6651,51.57,94,100,1.01
3714956,Ailigandí,PA,9.2333,-78.0167,79.39,86,100,4.14
2121025,Srednekolymsk,RU,67.45,153.6833,24.55,66,24,3.89
3128978,Balaguer,ES,41.7912,0.8109,54.19,85,0,4.99
1716573,Culasi,PH,11.4272,122.056,82.18,72,100,3.94
286245,Sur,OM,22.5667,59.5289,81.39,56,1,4.0
2112576,Ishinomaki,JP,38.4167,141.3,75.2,67,79,7.05
2160517,Launceston,AU,-41.45,147.1667,58.53,81,90,7.0
2294915,Takoradze,GH,4.8845,-1.7554,76.5,90,57,1.39
6111862,Port Hardy,CA,50.6996,-127.4199,48.38,87,90,12.66
1732826,Mersing,MY,2.4312,103.8405,84.11,84,40,3.44
5364271,Laguna,US,38.421,-121.4238,65.82,51,1,3.0
2112444,Kamaishi,JP,39.2667,141.8833,67.15,89,100,2.77
2021343,Kultuk,RU,51.7208,103.6956,37.83,90,100,2.86
3664078,Humaitá,BR,-7.5061,-63.0208,74.84,97,100,2.24
5193011,Hazleton,US,40.9584,-75.9746,59.49,89,90,0.0
3995652,Mocorito,MX,25.4833,-107.9167,92.21,57,3,1.97
2177069,Ballina,AU,-28.8667,153.5667,72.03,73,90,13.8
2940476,Bützow,DE,53.85,11.9833,46.92,92,62,4.34
2963370,Killarney,IE,52.05,-9.5167,60.67,99,100,5.21
2092164,Lorengau,PG,-2.0226,147.2712,85.68,65,59,11.14
3832899,Viedma,AR,-40.8135,-62.9967,44.71,58,99,2.53
556268,Ostrovnoy,RU,68.0531,39.5131,38.8,86,100,25.17
1795632,Shenjiamen,CN,29.9576,122.298,75.88,89,80,15.37
596544,Obeliai,LT,55.9667,25.15,35.94,70,0,6.13
3388926,São Caetano de Odivelas,BR,-0.75,-48.02,76.41,90,2,5.97
615844,Akhmeta,GE,42.0311,45.2075,48.72,95,100,1.59
1106677,Bambous Virieux,MU,-20.3428,57.7575,68.25,88,75,3.44
2636638,Stromness,GB,58.965,-3.296,55.15,91,79,5.01
3407010,Assaré,BR,-6.8744,-39.875,77.31,41,92,3.29
3354540,Omaruru,NA,-21.4333,15.9333,63.5,22,0,3.65
1688696,San Policarpo,PH,12.1791,125.5072,76.77,93,100,11.25
1990589,Teluknaga,ID,-6.0989,106.6381,85.5,74,20,4.61
2444995,Filingué,NE,14.3521,3.3168,87.19,28,36,2.62
1268059,Kanigiri,IN,15.4,79.5167,81.39,79,56,0.92
5905393,Bonavista,CA,48.6499,-53.1147,42.8,62,100,5.06
1503153,Klyuchi,RU,52.2667,79.1667,37.2,88,99,9.33
3359638,Walvis Bay,NA,-22.9575,14.5053,50.95,81,0,4.61
2122493,Omsukchan,RU,62.5333,155.8,17.92,81,80,1.66
1526041,Atasū,KZ,48.6814,71.6433,32.43,74,14,6.06
3939168,Huarmey,PE,-10.0681,-78.1522,63.77,88,95,12.46
2065176,Murray Bridge,AU,-35.1167,139.2667,68.11,27,100,12.59
359783,Assiut,EG,27.181,31.1837,69.98,50,0,7.87
3064449,Svoboda nad Úpou,CZ,50.626,15.8165,46.8,99,31,6.22
3421719,Narsaq,GL,60.9167,-46.05,44.82,51,89,7.29
3374120,Vila do Maio,CV,15.1333,-23.2167,79.59,79,22,10.27
1067565,Beloha,MG,-25.1667,45.05,60.24,61,1,8.9
1688781,City of San Pedro,PH,14.35,121.0167,87.03,77,75,2.3
5563839,Fortuna,US,40.5982,-124.1573,53.67,55,26,3.0
2450849,Sokolo,ML,14.7328,-6.1219,87.71,29,56,1.43
1519385,Sergeevka,KZ,53.88,67.4158,35.73,81,11,7.25
5919850,Chapais,CA,49.7834,-74.8492,56.98,94,24,4.23
3674676,Mitú,CO,1.1983,-70.1733,73.06,97,100,1.01
1214488,Meulaboh,ID,4.1363,96.1285,79.18,77,99,2.66
72181,Marzuq,YE,14.4,46.4667,74.35,60,15,2.62
88533,Awjilah,LY,29.1081,21.2869,72.05,32,0,7.9
1714733,Dingle,PH,10.9995,122.6711,77.38,89,100,3.4
2112539,Iwaki,JP,37.05,140.8833,82.63,60,59,1.99
1835848,Seoul,KR,37.5683,126.9778,67.82,83,90,2.3
2015913,Suntar,RU,62.1444,117.6319,34.23,74,100,5.99
2446796,Bilma,NE,18.6853,12.9164,78.87,20,1,7.25
2902768,Hof,DE,50.3167,11.9167,47.32,86,41,5.01
4260977,Marion,US,39.7684,-86.1555,65.35,92,90,3.44
3455777,Ortigueira,BR,-24.2083,-50.9494,62.13,98,55,5.08
352628,Maţāy,EG,28.419,30.7792,69.85,62,0,13.82
3860443,Comodoro Rivadavia,AR,-45.8667,-67.5,46.26,81,0,4.61
3836277,Santa Fe,AR,-31.6333,-60.7,59.65,47,0,1.99
1802204,Luancheng,CN,37.8792,114.6517,59.16,70,0,3.87
3354071,Oranjemund,NA,-28.55,16.4333,52.88,95,42,0.45
2890442,Kirchhundem,DE,51.1,8.1,39.69,1,0,2.42
2071860,Esperance,AU,-33.8667,121.9,60.64,57,91,16.69
457955,Liepāja,LV,56.5419,21.0367,37.38,87,100,2.3
2037485,Erenhot,CN,43.6475,111.9767,55.47,51,74,9.71
